{"componentChunkName":"component---src-pages-map-tsx","path":"/map/","result":{"data":{"site":{"siteMetadata":{"title":"Z Beans App"}},"allMarkdownRemark":{"edges":[{"node":{"excerpt":"St. Francis Sample text.","fields":{"slug":"/st-francis/"},"frontmatter":{"name":"St. Francis","tags":["cafe"],"coordinates":[-84.9609538,32.5050623],"location":null,"coordinateString":null,"altitude":null,"process":null,"flavor":null,"otherCrops":null,"markerOffset":[-8,8]}}},{"node":{"excerpt":"Ramiro Pauta  Arturo first met Ramiro at a coffee conference in Loja, Ecuador, in the Spring of 2019. At the conference, the two immediately…","fields":{"slug":"/ramiro-pauta/"},"frontmatter":{"name":"Ramiro Pauta","tags":["farmer"],"coordinates":[-79.2594,-4.218561111],"location":"Malacatos, Ecuador","coordinateString":"4° 13' 12.216\" S, 79° 15' 34.992\" W","altitude":5900,"process":"Washed","flavor":"Robust, bold, and smooth","otherCrops":"Oranges, Banana, Pitajaya","markerOffset":[6,15]}}},{"node":{"excerpt":"Milton Rivadeniera  Arturo first met Milton at a coffee conference in Ibarra, Ecuador, the fall of 2017. At the meeting, Milton told Arturo…","fields":{"slug":"/milton-rivadeneira/"},"frontmatter":{"name":"Milton Rivadeniera","tags":["farmer"],"coordinates":[-78.22921111,-0.662394444],"location":"La Carolina, Imbabura, Ecuador","coordinateString":"0° 39' 44.6148\" N, 78° 13' 45.156\" W","altitude":7000,"process":"Natural","flavor":"Powerful floral notes with a smooth finish","otherCrops":"Oranges, Grapefruits, Pitajaya","markerOffset":[10,-10]}}},{"node":{"excerpt":"Mercer Village Sample text.","fields":{"slug":"/mercer-village/"},"frontmatter":{"name":"Mercer Village","tags":["cafe"],"coordinates":[-83.6531159,32.8329258],"location":null,"coordinateString":null,"altitude":null,"process":null,"flavor":null,"otherCrops":null,"markerOffset":[-20,-5]}}},{"node":{"excerpt":"Jose Capa  We first met Jose at the processing facility in Pinas, Ecuador, during the summer of 2018. Jose brought in his natural coffee to…","fields":{"slug":"/jose-capa/"},"frontmatter":{"name":"Jose Capa","tags":["farmer"],"coordinates":[-79.74136667,-3.715769444],"location":"Nalacapa, Moromoro, Pinas, Ecuador","coordinateString":"3° 42' 56.773\" S, 79° 44' 28.916\" W","altitude":3500,"process":"Washed & Natural","flavor":"Creamy, rich, and smooth","otherCrops":"","markerOffset":[-18,2]}}},{"node":{"excerpt":"Jaya Family  Diego Jaya sent us a Facebook message in early April of 2019 that talked about his plantation. From there, Diego and Shane…","fields":{"slug":"/jaya-family/"},"frontmatter":{"name":"Jaya Family","tags":["farmer"],"coordinates":[-80.1503,-4.185761111],"location":"Las Lajas, Ecuador","coordinateString":"3° 47' 59.136\" S, 80° 4' 50.844\" W","altitude":4000,"process":"Honey","flavor":"Milk chocolate with powerful notes of honey","otherCrops":"Oranges, Grapefruits, Bananas","markerOffset":[-10,5]}}},{"node":{"excerpt":"Downtown Macon Sample text.","fields":{"slug":"/downtown-macon/"},"frontmatter":{"name":"Downtown Macon","tags":["cafe"],"coordinates":[-83.630623,32.8377527],"location":null,"coordinateString":null,"altitude":null,"process":null,"flavor":null,"otherCrops":null,"markerOffset":[10,-10]}}},{"node":{"excerpt":"Alfredo Ochoa  Alfredo was one of the first farmers Shane interviewed during his Mercer On Mission trip in the summer of 2016. Alfredo spoke…","fields":{"slug":"/alfredo-ochoa/"},"frontmatter":{"name":"Alfredo Ochoa","tags":["farmer"],"coordinates":[-79.68083056,-3.681069444],"location":"Curitejo, San Roque - Pinas, Ecuador","coordinateString":"3° 40' 51.852\" S, 79° 40' 50.988\" W","altitude":4200,"process":"Honey","flavor":"Sweet, Milk Chocolate","otherCrops":"Cacao, Oranges, Lemons","markerOffset":[-18,-10]}}}]}},"pageContext":{}}}